Time_stamp,fault_status_word_1,fault_status_word_2,fault_status_word_3,fault_status_word_4,mcu_0_fault_status,mcu_1_fault_status,mcu_2_fault_status,mcu_3_fault_status,operational_time,operational_state,dynamic_response,min_propulsion_batt_soc,aux_batt_soc,inertial_x_acc_g,inertial_y_acc_g,inertial_x_rate_rps,inertial_y_rate_rps,inertial_z_rate_rps,pse_pitch_deg,pse_pitch_rate_dps,pse_roll_deg,pse_roll_rate_dps,pse_yaw_rate_dps,pse_data_is_valid,yaw_rate_limit_rps,vel_limit_mps,linear_accel_mps2,linear_vel_mps,differential_wheel_vel_rps,right_front_vel_mps,left_front_vel_mps,right_rear_vel_mps,left_rear_vel_mps,right_front_pos_m,left_front_pos_m,right_rear_pos_m,left_rear_pos_m,linear_pos_m,right_front_current_A0pk,left_front_current_A0pk,right_rear_current_A0pk,left_rear_current_A0pk,max_motor_current_A0pk,right_front_current_limit_A0pk,left_front_current_limit_A0pk,right_rear_current_limit_A0pk,left_rear_current_limit_A0pk,min_motor_current_limit_A0pk,front_base_batt_1_soc,front_base_batt_2_soc,rear_base_batt_1_soc,rear_base_batt_2_soc,front_base_batt_1_temp_degC,front_base_batt_2_temp_degC,rear_base_batt_1_temp_degC,rear_base_batt_2_temp_degC,vel_target_mps,yaw_rate_target_rps,angle_target_deg,aux_batt_voltage_V,aux_batt_current_A,aux_batt_temp_degC,abb_system_status,aux_batt_status,aux_batt_faults,7p2V_battery_voltage,ccu_sp_sw_build_id,ccu_uip_sw_build_id,mcu_0_inst_power_W,mcu_1_inst_power_W,mcu_2_inst_power_W,mcu_3_inst_power_W,mcu_0_total_energy_Wh,mcu_1_total_energy_Wh,mcu_2_total_energy_Wh,mcu_3_total_energy_Wh,fram_vel_limit_mps,fram_accel_limit_mps2,fram_decel_limit_mps2,fram_dtz_decel_limit_mps2,fram_coastdown_decel_mps2,fram_yaw_rate_limit_rps,fram_yaw_accel_limit_rps2,fram_tire_diameter_m,fram_wheelbase_length_m,fram_wheel_track_width_m,fram_transmission_ratio,fram_config_bitmap,fram_eth_ip_address,fram_eth_port_number,fram_eth_subnet_mask,fram_eth_gateway,user_feedback_bitmap_1,user_feedback_bitmap_2,user_feedback_bitmap_3,user_feedback_bitmap_4,
0.0820000171661,0x00000000,0x00000000,0x00000000,0x00000000,0x00000000,0x00000000,0x00000000,0x00000000,6983.19,3,0x00000000,72.266,36.863,-0.0,0.011,-0.015,-0.035,0.012,0.634,0.095,0.082,0.665,-0.479,0x00000003,0.0,0.0,0.001,0.0,0.001,-0.0,0.001,0.0,0.0,0.001,-0.001,0.0,0.0,-0.0,0.165,0.025,0.0,0.0,0.165,34.991,34.991,0.0,0.0,0.0,72.266,76.953,0.0,0.0,25.875,26.375,0.0,0.0,0.0,0.0,90.0,74.453,0.156,28.438,0x00000000,0x00000000,0x00000000,0.0,1240,1278,4.593,13.461,0.0,0.0,7.687,25.151,0.0,0.0,1.0,0.981,0.981,0.981,0.196,1.0,1.0,0.462,0.584,0.57,24.267,0x00000101,192.168.0.40,8080,255.255.255.0,192.168.0.1,0xFFFFFFFF,0xFFFFFFFF,0xFFFFFFFF,0x00000000,
0.131999969482,0x00000000,0x00000000,0x00000000,0x00000000,0x00000000,0x00000000,0x00000000,0x00000000,6983.24,4,0x00000000,72.266,36.863,-0.0,0.01,-0.01,-0.043,0.0,0.634,-0.217,0.072,-0.575,-0.13,0x00000003,0.01,0.01,0.0,0.0,0.002,-0.001,0.001,0.0,0.0,0.001,-0.001,0.0,0.0,-0.0,0.165,0.114,0.0,0.0,0.165,34.991,34.991,0.0,0.0,0.0,72.266,76.953,0.0,0.0,25.875,26.375,0.0,0.0,0.0,0.0,90.0,74.453,0.156,28.438,0x00000000,0x00000000,0x00000000,0.0,1240,1278,3.776,18.226,0.0,0.0,7.687,25.151,0.0,0.0,1.0,0.981,0.981,0.981,0.196,1.0,1.0,0.462,0.584,0.57,24.267,0x00000101,192.168.0.40,8080,255.255.255.0,192.168.0.1,0xFFFFFFFF,0xFFFFFFFF,0xFFFFFFFF,0x00000000,
0.181999921799,0x00000000,0x00000000,0x00000000,0x00000000,0x00000000,0x00000000,0x00000000,0x00000000,6983.29,4,0x00000000,72.266,36.863,0.0,0.01,-0.024,-0.043,0.006,0.637,0.242,0.082,1.133,0.916,0x00000003,0.06,0.059,0.012,0.0,0.002,-0.0,0.002,0.0,0.0,0.001,-0.001,0.0,0.0,-0.0,0.547,-0.191,0.0,0.0,0.547,34.991,34.991,0.0,0.0,0.0,72.266,76.953,0.0,0.0,25.875,26.375,0.0,0.0,0.0,0.0,90.0,74.453,0.156,28.438,0x00000000,0x00000000,0x00000000,0.0,1240,1278,7.612,19.453,0.0,0.0,7.687,25.152,0.0,0.0,1.0,0.981,0.981,0.981,0.196,1.0,1.0,0.462,0.584,0.57,24.267,0x00000101,192.168.0.40,8080,255.255.255.0,192.168.0.1,0xFFFFFFFF,0xFFFFFFFF,0xFFFFFFFF,0x00000000,
0.231999874115,0x00000000,0x00000000,0x00000000,0x00000000,0x00000000,0x00000000,0x00000000,0x00000000,6983.34,4,0x00000000,72.266,36.863,-0.001,0.01,-0.021,-0.035,0.012,0.633,-0.127,0.077,-0.082,-0.128,0x00000003,0.11,0.108,-0.0,0.0,0.002,-0.001,0.001,0.0,0.0,0.001,-0.001,0.0,0.0,-0.0,-0.572,-1.004,0.0,0.0,-1.004,34.991,34.991,0.0,0.0,0.0,72.266,76.953,0.0,0.0,25.875,26.375,0.0,0.0,0.0,0.0,90.0,74.453,0.156,28.438,0x00000000,0x00000000,0x00000000,0.0,1240,1278,4.659,19.067,0.0,0.0,7.687,25.152,0.0,0.0,1.0,0.981,0.981,0.981,0.196,1.0,1.0,0.462,0.584,0.57,24.267,0x00000101,192.168.0.40,8080,255.255.255.0,192.168.0.1,0xFFFFFFFF,0xFFFFFFFF,0xFFFFFFFF,0x00000000,
0.28200006485,0x00000000,0x00000000,0x00000000,0x00000000,0x00000000,0x00000000,0x00000000,0x00000000,6983.39,4,0x00000000,72.266,36.863,-0.0,0.011,-0.02,-0.013,0.012,0.624,-0.056,0.082,-0.1,0.919,0x00000003,0.16,0.157,-0.003,0.0,0.002,-0.0,0.0,0.0,0.0,0.001,-0.001,0.0,0.0,-0.0,0.153,0.013,0.0,0.0,0.153,34.991,34.991,0.0,0.0,0.0,72.266,76.953,0.0,0.0,25.875,26.375,0.0,0.0,0.0,0.0,90.0,74.453,0.156,28.438,0x00000000,0x00000000,0x00000000,0.0,1240,1278,6.661,16.482,0.0,0.0,7.687,25.152,0.0,0.0,1.0,0.981,0.981,0.981,0.196,1.0,1.0,0.462,0.584,0.57,24.267,0x00000101,192.168.0.40,8080,255.255.255.0,192.168.0.1,0xFFFFFFFF,0xFFFFFFFF,0xFFFFFFFF,0x00000000,
0.332000017166,0x00000000,0x00000000,0x00000000,0x00000000,0x00000000,0x00000000,0x00000000,0x00000000,6983.44,4,0x00000000,72.266,36.863,-0.0,0.01,-0.005,-0.047,0.0,0.628,-0.297,0.081,-0.594,0.917,0x00000003,0.21,0.206,-0.013,-0.0,0.001,-0.001,0.0,0.0,0.0,0.001,-0.001,0.0,0.0,-0.0,0.14,0.013,0.0,0.0,0.14,34.991,34.991,0.0,0.0,0.0,72.266,76.953,0.0,0.0,25.875,26.375,0.0,0.0,0.0,0.0,90.0,74.453,0.156,28.438,0x00000000,0x00000000,0x00000000,0.0,1240,1278,5.105,17.463,0.0,0.0,7.688,25.152,0.0,0.0,1.0,0.981,0.981,0.981,0.196,1.0,1.0,0.462,0.584,0.57,24.267,0x00000101,192.168.0.40,8080,255.255.255.0,192.168.0.1,0xFFFFFFFF,0xFFFFFFFF,0xFFFFFFFF,0x00000000,
0.384000062943,0x00000000,0x00000000,0x00000000,0x00000000,0x00000000,0x00000000,0x00000000,0x00000000,6983.49,4,0x00000000,72.266,36.863,-0.001,0.011,-0.009,-0.013,0.0,0.625,0.535,0.071,0.404,0.222,0x00000003,0.26,0.255,0.003,-0.0,0.002,-0.001,0.0,0.0,0.0,0.001,-0.001,0.0,0.0,-0.0,0.14,-0.076,0.0,0.0,0.14,34.991,34.991,0.0,0.0,0.0,72.266,76.953,0.0,0.0,25.875,26.375,0.0,0.0,0.0,0.0,90.0,74.453,0.156,28.438,0x00000000,0x00000000,0x00000000,0.0,1240,1278,3.928,17.505,0.0,0.0,7.688,25.153,0.0,0.0,1.0,0.981,0.981,0.981,0.196,1.0,1.0,0.462,0.584,0.57,24.267,0x00000101,192.168.0.40,8080,255.255.255.0,192.168.0.1,0xFFFFFFFF,0xFFFFFFFF,0xFFFFFFFF,0x00000000,
0.432999849319,0x00000000,0x00000000,0x00000000,0x00000000,0x00000000,0x00000000,0x00000000,0x00000000,6983.54,4,0x00000000,72.266,36.863,-0.0,0.011,-0.017,-0.043,0.018,0.623,-0.001,0.083,0.638,0.914,0x00000003,0.31,0.304,0.002,0.0,0.002,-0.0,0.001,0.0,0.0,0.001,-0.001,0.0,0.0,-0.0,0.153,0.102,0.0,0.0,0.153,34.991,34.991,0.0,0.0,0.0,72.266,76.953,0.0,0.0,25.875,26.375,0.0,0.0,0.0,0.0,90.0,74.453,0.156,28.438,0x00000000,0x00000000,0x00000000,0.0,1240,1278,5.376,18.401,0.0,0.0,7.688,25.153,0.0,0.0,1.0,0.981,0.981,0.981,0.196,1.0,1.0,0.462,0.584,0.57,24.267,0x00000101,192.168.0.40,8080,255.255.255.0,192.168.0.1,0xFFFFFFFF,0xFFFFFFFF,0xFFFFFFFF,0x00000000,
0.486999988556,0x00000000,0x00000000,0x00000000,0x00000000,0x00000000,0x00000000,0x00000000,0x00000000,6983.59,4,0x00000000,72.266,36.863,-0.0,0.011,-0.02,-0.022,0.012,0.613,0.143,0.08,0.404,0.217,0x00000003,0.36,0.353,-0.006,-0.0,0.002,-0.001,0.0,0.0,0.0,0.001,-0.001,0.0,0.0,-0.0,0.153,0.013,0.0,0.0,0.153,34.991,34.991,0.0,0.0,0.0,72.266,76.953,0.0,0.0,25.875,26.375,0.0,0.0,0.0,0.0,90.0,74.453,0.156,28.438,0x00000000,0x00000000,0x00000000,0.0,1240,1278,7.739,14.407,0.0,0.0,7.688,25.153,0.0,0.0,1.0,0.981,0.981,0.981,0.196,1.0,1.0,0.462,0.584,0.57,24.267,0x00000101,192.168.0.40,8080,255.255.255.0,192.168.0.1,0xFFFFFFFF,0xFFFFFFFF,0xFFFFFFFF,0x00000000,
0.536000013351,0x00000000,0x00000000,0x00000000,0x00000000,0x00000000,0x00000000,0x00000000,0x00000000,6983.64,4,0x00000000,72.266,36.863,-0.0,0.011,-0.025,-0.026,0.042,0.614,-0.076,0.082,-0.342,0.566,0x00000003,0.41,0.402,-0.011,-0.0,0.003,-0.002,0.001,0.0,0.0,0.001,-0.001,0.0,0.0,-0.0,0.14,0.114,0.0,0.0,0.14,34.991,34.991,0.0,0.0,0.0,72.266,76.953,0.0,0.0,25.875,26.375,0.0,0.0,0.0,0.0,90.0,74.453,0.156,28.438,0x00000000,0x00000000,0x00000000,0.0,1240,1278,8.266,14.234,0.0,0.0,7.688,25.153,0.0,0.0,1.0,0.981,0.981,0.981,0.196,1.0,1.0,0.462,0.584,0.57,24.267,0x00000101,192.168.0.40,8080,255.255.255.0,192.168.0.1,0xFFFFFFFF,0xFFFFFFFF,0xFFFFFFFF,0x00000000,
0.588999986649,0x00000000,0x00000000,0x00000000,0x00000000,0x00000000,0x00000000,0x00000000,0x00000000,6983.69,4,0x00000000,72.266,36.863,-0.001,0.012,-0.01,-0.026,0.0,0.602,0.19,0.081,0.908,-0.481,0x00000003,0.46,0.451,0.008,0.0,0.003,-0.0,0.001,0.0,0.0,0.001,-0.001,0.0,0.0,-0.0,0.242,0.013,0.0,0.0,0.242,34.991,34.991,0.0,0.0,0.0,72.266,76.953,0.0,0.0,25.875,26.375,0.0,0.0,0.0,0.0,90.0,74.453,0.156,28.438,0x00000000,0x00000000,0x00000000,0.0,1240,1278,6.321,13.56,0.0,0.0,7.688,25.154,0.0,0.0,1.0,0.981,0.981,0.981,0.196,1.0,1.0,0.462,0.584,0.57,24.267,0x00000101,192.168.0.40,8080,255.255.255.0,192.168.0.1,0xFFFFFFFF,0xFFFFFFFF,0xFFFFFFFF,0x00000000,
0.642999887466,0x00000000,0x00000000,0x00000000,0x00000000,0x00000000,0x00000000,0x00000000,0x00000000,6983.75,4,0x00000000,72.266,36.863,-0.001,0.011,-0.018,-0.039,0.03,0.615,0.538,0.057,-0.078,-0.475,0x00000003,0.52,0.51,-0.003,0.0,0.002,-0.001,0.001,0.0,0.0,0.001,-0.001,0.0,0.0,-0.0,0.153,-0.089,0.0,0.0,0.153,34.991,34.991,0.0,0.0,0.0,72.266,76.953,0.0,0.0,25.875,26.375,0.0,0.0,0.0,0.0,90.0,74.453,0.156,28.438,0x00000000,0x00000000,0x00000000,0.0,1240,1278,6.81,16.776,0.0,0.0,7.688,25.154,0.0,0.0,1.0,0.981,0.981,0.981,0.196,1.0,1.0,0.462,0.584,0.57,24.267,0x00000101,192.168.0.40,8080,255.255.255.0,192.168.0.1,0xFFFFFFFF,0xFFFFFFFF,0xFFFFFFFF,0x00000000,
0.692999839783,0x00000000,0x00000000,0x00000000,0x00000000,0x00000000,0x00000000,0x00000000,0x00000000,6983.8,4,0x00000000,72.266,36.863,-0.001,0.01,-0.024,-0.026,0.018,0.626,0.24,0.061,0.144,0.917,0x00000003,0.57,0.559,-0.003,0.0,0.002,-0.0,0.0,0.0,0.0,0.001,-0.001,0.0,0.0,-0.0,0.229,0.013,0.0,0.0,0.229,34.991,34.991,0.0,0.0,0.0,72.266,76.953,0.0,0.0,25.875,26.375,0.0,0.0,0.0,0.0,90.0,74.453,0.156,28.438,0x00000000,0x00000000,0x00000000,0.0,1240,1278,8.55,17.703,0.0,0.0,7.688,25.154,0.0,0.0,1.0,0.981,0.981,0.981,0.196,1.0,1.0,0.462,0.584,0.57,24.267,0x00000101,192.168.0.40,8080,255.255.255.0,192.168.0.1,0xFFFFFFFF,0xFFFFFFFF,0xFFFFFFFF,0x00000000,
0.743000030518,0x00000000,0x00000000,0x00000000,0x00000000,0x00000000,0x00000000,0x00000000,0x00000000,6983.85,4,0x00000000,72.266,36.863,-0.0,0.011,-0.008,-0.017,0.0,0.613,0.242,0.061,-0.326,-0.476,0x00000003,0.62,0.608,-0.003,0.0,0.001,-0.0,0.0,0.0,0.0,0.001,-0.001,0.0,0.0,-0.0,0.165,0.127,0.0,0.0,0.165,34.991,34.991,0.0,0.0,0.0,72.266,76.953,0.0,0.0,25.875,26.375,0.0,0.0,0.0,0.0,90.0,74.453,0.156,28.438,0x00000000,0x00000000,0x00000000,0.0,1240,1278,9.309,17.516,0.0,0.0,7.688,25.154,0.0,0.0,1.0,0.981,0.981,0.981,0.196,1.0,1.0,0.462,0.584,0.57,24.267,0x00000101,192.168.0.40,8080,255.255.255.0,192.168.0.1,0xFFFFFFFF,0xFFFFFFFF,0xFFFFFFFF,0x00000000,
0.885999917984,0x00000000,0x00000000,0x00000000,0x00000000,0x00000000,0x00000000,0x00000000,0x00000000,6983.9,4,0x00000000,72.266,36.863,0.0,0.011,-0.019,-0.022,-0.0,0.62,-0.346,0.066,0.167,-0.48,0x00000003,0.67,0.657,-0.01,-0.0,0.002,-0.001,0.0,0.0,0.0,0.001,-0.001,0.0,0.0,-0.0,0.14,0.025,0.0,0.0,0.14,34.991,34.991,0.0,0.0,0.0,72.266,76.953,0.0,0.0,25.875,26.375,0.0,0.0,0.0,0.0,90.0,74.453,0.156,28.438,0x00000000,0x00000000,0x00000000,0.0,1240,1278,5.203,17.735,0.0,0.0,7.688,25.155,0.0,0.0,1.0,0.981,0.981,0.981,0.196,1.0,1.0,0.462,0.584,0.57,24.267,0x00000101,192.168.0.40,8080,255.255.255.0,192.168.0.1,0xFFFFFFFF,0xFFFFFFFF,0xFFFFFFFF,0x00000000,
0.914000034332,0x00000000,0x00000000,0x00000000,0x00000000,0x00000000,0x00000000,0x00000000,0x00000000,6984.02,4,0x00000000,72.266,36.863,-0.001,0.01,-0.019,-0.03,-0.006,0.619,-0.106,0.074,0.167,-0.477,0x00000003,0.79,0.775,0.003,0.0,0.003,-0.001,0.001,0.0,0.0,0.001,-0.001,0.0,0.0,-0.0,0.153,0.025,0.0,0.0,0.153,34.991,34.991,0.0,0.0,0.0,72.266,76.953,0.0,0.0,25.875,26.375,0.0,0.0,0.0,0.0,90.0,74.453,0.156,28.438,0x00000000,0x00000000,0x00000000,0.0,1240,1278,8.364,13.729,0.0,0.0,7.689,25.155,0.0,0.0,1.0,0.981,0.981,0.981,0.196,1.0,1.0,0.462,0.584,0.57,24.267,0x00000101,192.168.0.40,8080,255.255.255.0,192.168.0.1,0xFFFFFFFF,0xFFFFFFFF,0xFFFFFFFF,0x00000000,
0.922999858856,0x00000000,0x00000000,0x00000000,0x00000000,0x00000000,0x00000000,0x00000000,0x00000000,6984.03,4,0x00000000,72.266,36.863,-0.0,0.011,-0.014,-0.043,0.03,0.616,-0.219,0.072,-0.075,-0.827,0x00000003,0.8,0.785,0.001,0.0,0.002,-0.0,0.001,0.0,0.0,0.001,-0.001,0.0,0.0,-0.0,0.14,0.114,0.0,0.0,0.14,34.991,34.991,0.0,0.0,0.0,72.266,76.953,0.0,0.0,25.875,26.375,0.0,0.0,0.0,0.0,90.0,74.453,0.156,28.438,0x00000000,0x00000000,0x00000000,0.0,1240,1278,6.642,16.1,0.0,0.0,7.689,25.155,0.0,0.0,1.0,0.981,0.981,0.981,0.196,1.0,1.0,0.462,0.584,0.57,24.267,0x00000101,192.168.0.40,8080,255.255.255.0,192.168.0.1,0xFFFFFFFF,0xFFFFFFFF,0xFFFFFFFF,0x00000000,
0.944999933243,0x00000000,0x00000000,0x00000000,0x00000000,0x00000000,0x00000000,0x00000000,0x00000000,6984.05,4,0x00000000,72.266,36.863,-0.0,0.01,-0.009,-0.047,0.012,0.615,-0.217,0.062,-0.064,-1.524,0x00000003,0.82,0.804,0.0,0.0,0.002,-0.0,0.001,0.0,0.0,0.001,-0.001,0.0,0.0,-0.0,0.267,-0.089,0.0,0.0,0.267,34.991,34.991,0.0,0.0,0.0,72.266,76.953,0.0,0.0,25.875,26.375,0.0,0.0,0.0,0.0,90.0,74.453,0.156,28.438,0x00000000,0x00000000,0x00000000,0.0,1240,1278,4.07,13.652,0.0,0.0,7.689,25.155,0.0,0.0,1.0,0.981,0.981,0.981,0.196,1.0,1.0,0.462,0.584,0.57,24.267,0x00000101,192.168.0.40,8080,255.255.255.0,192.168.0.1,0xFFFFFFFF,0xFFFFFFFF,0xFFFFFFFF,0x00000000,
0.993000030518,0x00000000,0x00000000,0x00000000,0x00000000,0x00000000,0x00000000,0x00000000,0x00000000,6984.1,4,0x00000000,72.266,36.863,-0.0,0.012,-0.007,-0.034,0.0,0.616,0.068,0.052,-0.087,-0.127,0x00000003,0.87,0.853,0.007,0.0,0.002,-0.0,0.001,0.0,0.0,0.001,-0.001,0.0,0.0,-0.0,0.153,0.013,0.0,0.0,0.153,34.991,34.991,0.0,0.0,0.0,72.266,76.953,0.0,0.0,25.875,26.375,0.0,0.0,0.0,0.0,90.0,74.453,0.156,28.438,0x00000000,0x00000000,0x00000000,0.0,1240,1278,8.166,14.201,0.0,0.0,7.689,25.155,0.0,0.0,1.0,0.981,0.981,0.981,0.196,1.0,1.0,0.462,0.584,0.57,24.267,0x00000101,192.168.0.40,8080,255.255.255.0,192.168.0.1,0xFFFFFFFF,0xFFFFFFFF,0xFFFFFFFF,0x00000000,
1.1139998436,0x00000000,0x00000000,0x00000000,0x00000000,0x00000000,0x00000000,0x00000000,0x00000000,6984.22,4,0x00000000,72.266,36.863,-0.001,0.011,-0.018,-0.047,0.006,0.601,0.068,0.028,0.406,-0.127,0x00000003,0.99,0.971,0.003,-0.0,0.002,-0.001,0.001,0.0,0.0,0.001,-0.001,0.0,0.0,-0.0,0.14,0.013,0.0,0.0,0.14,34.991,34.991,0.0,0.0,0.0,72.266,76.953,0.0,0.0,25.875,26.375,0.0,0.0,0.0,0.0,90.0,74.453,0.156,28.438,0x00000000,0x00000000,0x00000000,0.0,1240,1278,4.127,12.431,0.0,0.0,7.689,25.156,0.0,0.0,1.0,0.981,0.981,0.981,0.196,1.0,1.0,0.462,0.584,0.57,24.267,0x00000101,192.168.0.40,8080,255.255.255.0,192.168.0.1,0xFFFFFFFF,0xFFFFFFFF,0xFFFFFFFF,0x00000000,
1.125,0x00000000,0x00000000,0x00000000,0x00000000,0x00000000,0x00000000,0x00000000,0x00000000,6984.23,4,0x00000000,72.266,36.863,-0.001,0.011,-0.019,-0.017,0.012,0.599,-0.131,0.016,-1.073,-0.124,0x00000003,1.0,0.981,0.008,-0.0,0.002,-0.0,0.001,0.0,0.0,0.001,-0.001,0.0,0.0,-0.0,0.153,-0.089,0.0,0.0,0.153,34.991,34.991,0.0,0.0,0.0,72.266,76.953,0.0,0.0,25.875,26.375,0.0,0.0,0.0,0.0,90.0,74.453,0.156,28.438,0x00000000,0x00000000,0x00000000,0.0,1240,1278,4.381,11.02,0.0,0.0,7.689,25.156,0.0,0.0,1.0,0.981,0.981,0.981,0.196,1.0,1.0,0.462,0.584,0.57,24.267,0x00000101,192.168.0.40,8080,255.255.255.0,192.168.0.1,0xFFFFFFFF,0xFFFFFFFF,0xFFFFFFFF,0x00000000,
1.14400005341,0x00000000,0x00000000,0x00000000,0x00000000,0x00000000,0x00000000,0x00000000,0x00000000,6984.25,4,0x00000000,72.266,36.863,-0.0,0.011,-0.009,-0.03,0.0,0.599,0.045,0.023,0.154,0.222,0x00000003,1.0,1.0,0.007,0.0,0.002,-0.0,0.001,0.0,0.0,0.001,-0.001,0.0,0.0,-0.0,0.153,-0.102,0.0,0.0,0.153,34.991,34.991,0.0,0.0,0.0,72.266,76.953,0.0,0.0,25.875,26.375,0.0,0.0,0.0,0.0,90.0,74.453,0.156,28.438,0x00000000,0x00000000,0x00000000,0.0,1240,1278,7.931,14.254,0.0,0.0,7.689,25.156,0.0,0.0,1.0,0.981,0.981,0.981,0.196,1.0,1.0,0.462,0.584,0.57,24.267,0x00000101,192.168.0.40,8080,255.255.255.0,192.168.0.1,0xFFFFFFFF,0xFFFFFFFF,0xFFFFFFFF,0x00000000,
1.25499987602,0x00000000,0x00000000,0x00000000,0x00000000,0x00000000,0x00000000,0x00000000,0x00000000,6984.31,4,0x00000000,72.266,36.863,-0.0,0.011,-0.011,-0.047,-0.006,0.619,0.703,0.015,-0.086,-0.12,0x00000003,1.0,1.0,-0.005,-0.0,0.003,-0.002,0.001,0.0,0.0,0.001,-0.001,0.0,0.0,-0.0,0.14,0.0,0.0,0.0,0.14,34.991,34.991,0.0,0.0,0.0,72.266,76.953,0.0,0.0,25.875,26.375,0.0,0.0,0.0,0.0,90.0,74.453,0.156,28.438,0x00000000,0x00000000,0x00000000,0.0,1240,1278,4.841,16.792,0.0,0.0,7.689,25.156,0.0,0.0,1.0,0.981,0.981,0.981,0.196,1.0,1.0,0.462,0.584,0.57,24.267,0x00000101,192.168.0.40,8080,255.255.255.0,192.168.0.1,0xFFFFFFFF,0xFFFFFFFF,0xFFFFFFFF,0x00000000,
1.28399991989,0x00000000,0x00000000,0x00000000,0x00000000,0x00000000,0x00000000,0x00000000,0x00000000,6984.39,4,0x00000000,72.266,36.863,-0.001,0.01,-0.007,-0.039,0.018,0.604,-0.371,-0.015,-0.099,0.568,0x00000003,1.0,1.0,0.004,0.0,0.002,-0.0,0.001,0.0,0.0,0.001,-0.001,0.0,0.0,-0.0,0.229,0.013,0.0,0.0,0.229,34.991,34.991,0.0,0.0,0.0,72.266,76.953,0.0,0.0,25.875,26.375,0.0,0.0,0.0,0.0,90.0,74.453,0.156,28.438,0x00000000,0x00000000,0x00000000,0.0,1240,1278,7.736,16.397,0.0,0.0,7.689,25.157,0.0,0.0,1.0,0.981,0.981,0.981,0.196,1.0,1.0,0.462,0.584,0.57,24.267,0x00000101,192.168.0.40,8080,255.255.255.0,192.168.0.1,0xFFFFFFFF,0xFFFFFFFF,0xFFFFFFFF,0x00000000,
1.30599999428,0x00000000,0x00000000,0x00000000,0x00000000,0x00000000,0x00000000,0x00000000,0x00000000,6984.41,4,0x00000000,72.266,36.863,-0.001,0.011,-0.02,-0.026,0.006,0.608,-0.128,-0.027,-0.581,-0.126,0x00000003,1.0,1.0,-0.001,0.0,0.001,-0.0,0.0,0.0,0.0,0.001,-0.001,0.0,0.0,-0.0,0.254,0.025,0.0,0.0,0.254,34.991,34.991,0.0,0.0,0.0,72.266,76.953,0.0,0.0,25.875,26.375,0.0,0.0,0.0,0.0,90.0,74.453,0.156,28.438,0x00000000,0x00000000,0x00000000,0.0,1240,1278,4.381,18.125,0.0,0.0,7.689,25.157,0.0,0.0,1.0,0.981,0.981,0.981,0.196,1.0,1.0,0.462,0.584,0.57,24.267,0x00000101,192.168.0.40,8080,255.255.255.0,192.168.0.1,0xFFFFFFFF,0xFFFFFFFF,0xFFFFFFFF,0x00000000,
1.35500001907,0x00000000,0x00000000,0x00000000,0x00000000,0x00000000,0x00000000,0x00000000,0x00000000,6984.46,4,0x00000000,72.266,36.863,-0.0,0.011,-0.015,-0.043,-0.012,0.614,0.226,-0.026,-0.065,-1.519,0x00000003,1.0,1.0,0.015,0.0,0.003,0.0,0.002,0.0,0.0,0.001,-0.001,0.0,0.0,-0.0,0.242,-0.089,0.0,0.0,0.242,34.991,34.991,0.0,0.0,0.0,72.266,76.953,0.0,0.0,25.875,26.375,0.0,0.0,0.0,0.0,90.0,74.453,0.156,28.438,0x00000000,0x00000000,0x00000000,0.0,1240,1278,5.787,14.395,0.0,0.0,7.689,25.157,0.0,0.0,1.0,0.981,0.981,0.981,0.196,1.0,1.0,0.462,0.584,0.57,24.267,0x00000101,192.168.0.40,8080,255.255.255.0,192.168.0.1,0xFFFFFFFF,0xFFFFFFFF,0xFFFFFFFF,0x00000000,
1.52399992943,0x00000000,0x00000000,0x00000000,0x00000000,0x00000000,0x00000000,0x00000000,0x00000000,6984.63,4,0x00000000,72.266,36.863,0.0,0.011,-0.014,-0.026,0.012,0.609,0.44,-0.027,-0.821,-0.472,0x00000003,1.0,1.0,-0.001,-0.0,0.001,-0.0,0.0,0.0,0.0,0.001,-0.001,0.0,0.0,-0.0,0.229,0.114,0.0,0.0,0.229,34.991,34.991,0.0,0.0,0.0,72.266,76.953,0.0,0.0,25.875,26.375,0.0,0.0,0.0,0.0,90.0,74.453,0.156,28.438,0x00000000,0x00000000,0x00000000,0.0,1240,1278,6.953,18.145,0.0,0.0,7.69,25.158,0.0,0.0,1.0,0.981,0.981,0.981,0.196,1.0,1.0,0.462,0.584,0.57,24.267,0x00000101,192.168.0.40,8080,255.255.255.0,192.168.0.1,0xFFFFFFFF,0xFFFFFFFF,0xFFFFFFFF,0x00000000,
1.53399991989,0x00000000,0x00000000,0x00000000,0x00000000,0x00000000,0x00000000,0x00000000,0x00000000,6984.64,4,0x00000000,72.266,36.863,-0.001,0.01,-0.024,-0.022,0.024,0.611,0.091,-0.025,0.154,0.222,0x00000003,1.0,1.0,0.0,-0.0,0.001,-0.0,0.0,0.0,0.0,0.001,-0.001,0.0,0.0,-0.0,0.229,-0.076,0.0,0.0,0.229,34.991,34.991,0.0,0.0,0.0,72.266,76.953,0.0,0.0,25.875,26.375,0.0,0.0,0.0,0.0,90.0,74.453,0.156,28.438,0x00000000,0x00000000,0x00000000,0.0,1240,1278,5.897,14.068,0.0,0.0,7.69,25.158,0.0,0.0,1.0,0.981,0.981,0.981,0.196,1.0,1.0,0.462,0.584,0.57,24.267,0x00000101,192.168.0.40,8080,255.255.255.0,192.168.0.1,0xFFFFFFFF,0xFFFFFFFF,0xFFFFFFFF,0x00000000,
1.55399990082,0x00000000,0x00000000,0x00000000,0x00000000,0x00000000,0x00000000,0x00000000,0x00000000,6984.66,4,0x00000000,72.266,36.863,-0.0,0.01,-0.018,-0.035,0.043,0.607,-0.005,-0.022,-0.081,-0.475,0x00000003,1.0,1.0,0.003,0.0,0.001,-0.0,0.0,0.0,0.0,0.001,-0.001,0.0,0.0,-0.0,0.14,0.025,0.0,0.0,0.14,34.991,34.991,0.0,0.0,0.0,72.266,76.953,0.0,0.0,25.875,26.375,0.0,0.0,0.0,0.0,90.0,74.453,0.156,28.438,0x00000000,0x00000000,0x00000000,0.0,1240,1278,4.012,17.462,0.0,0.0,7.69,25.158,0.0,0.0,1.0,0.981,0.981,0.981,0.196,1.0,1.0,0.462,0.584,0.57,24.267,0x00000101,192.168.0.40,8080,255.255.255.0,192.168.0.1,0xFFFFFFFF,0xFFFFFFFF,0xFFFFFFFF,0x00000000,
1.60399985313,0x00000000,0x00000000,0x00000000,0x00000000,0x00000000,0x00000000,0x00000000,0x00000000,6984.71,4,0x00000000,72.266,36.863,-0.0,0.011,-0.022,-0.039,0.006,0.6,0.165,-0.033,-0.345,0.57,0x00000003,1.0,1.0,0.002,0.0,0.001,-0.0,0.0,0.0,0.0,0.001,-0.001,0.0,0.0,-0.0,0.153,0.025,0.0,0.0,0.153,34.991,34.991,0.0,0.0,0.0,72.266,76.953,0.0,0.0,25.875,26.375,0.0,0.0,0.0,0.0,90.0,74.453,0.156,28.438,0x00000000,0x00000000,0x00000000,0.0,1240,1278,4.949,16.413,0.0,0.0,7.69,25.158,0.0,0.0,1.0,0.981,0.981,0.981,0.196,1.0,1.0,0.462,0.584,0.57,24.267,0x00000101,192.168.0.40,8080,255.255.255.0,192.168.0.1,0xFFFFFFFF,0xFFFFFFFF,0xFFFFFFFF,0x00000000,
1.8069999218,0x00000000,0x00000000,0x00000000,0x00000000,0x00000000,0x00000000,0x00000000,0x00000000,6984.84,4,0x00000000,72.266,36.863,-0.0,0.011,-0.02,-0.022,0.006,0.623,0.564,-0.023,-0.321,-0.822,0x00000003,1.0,1.0,-0.0,0.0,0.001,-0.0,0.001,0.0,0.0,0.001,-0.001,0.0,0.0,-0.0,0.153,0.025,0.0,0.0,0.153,34.991,34.991,0.0,0.0,0.0,72.266,76.953,0.0,0.0,25.875,26.375,0.0,0.0,0.0,0.0,90.0,74.453,0.156,28.438,0x00000000,0x00000000,0x00000000,0.0,1240,1278,6.619,18.256,0.0,0.0,7.69,25.159,0.0,0.0,1.0,0.981,0.981,0.981,0.196,1.0,1.0,0.462,0.584,0.57,24.267,0x00000101,192.168.0.40,8080,255.255.255.0,192.168.0.1,0xFFFFFFFF,0xFFFFFFFF,0xFFFFFFFF,0x00000000,
1.80799984932,0x00000000,0x00000000,0x00000000,0x00000000,0x00000000,0x00000000,0x00000000,0x00000000,6984.85,4,0x00000000,72.266,36.863,-0.001,0.011,-0.018,-0.017,0.03,0.619,-0.261,-0.02,0.404,-0.133,0x00000003,1.0,1.0,-0.003,0.0,0.001,-0.0,0.0,0.0,0.0,0.001,-0.001,0.0,0.0,-0.0,0.14,0.025,0.0,0.0,0.14,34.991,34.991,0.0,0.0,0.0,72.266,76.953,0.0,0.0,25.875,26.375,0.0,0.0,0.0,0.0,90.0,74.453,0.156,28.438,0x00000000,0x00000000,0x00000000,0.0,1240,1278,5.718,14.128,0.0,0.0,7.69,25.159,0.0,0.0,1.0,0.981,0.981,0.981,0.196,1.0,1.0,0.462,0.584,0.57,24.267,0x00000101,192.168.0.40,8080,255.255.255.0,192.168.0.1,0xFFFFFFFF,0xFFFFFFFF,0xFFFFFFFF,0x00000000,
1.83399987221,0x00000000,0x00000000,0x00000000,0x00000000,0x00000000,0x00000000,0x00000000,0x00000000,6984.94,4,0x00000000,72.266,36.863,-0.001,0.011,-0.028,-0.035,0.042,0.616,0.17,-0.032,-0.815,-0.821,0x00000003,1.0,1.0,0.005,0.0,0.002,-0.0,0.001,0.0,0.0,0.001,-0.001,0.0,0.0,-0.0,0.14,0.013,0.0,0.0,0.14,34.991,34.991,0.0,0.0,0.0,72.266,76.953,0.0,0.0,25.875,26.375,0.0,0.0,0.0,0.0,90.0,74.453,0.156,28.438,0x00000000,0x00000000,0x00000000,0.0,1240,1278,5.059,18.412,0.0,0.0,7.69,25.159,0.0,0.0,1.0,0.981,0.981,0.981,0.196,1.0,1.0,0.462,0.584,0.57,24.267,0x00000101,192.168.0.40,8080,255.255.255.0,192.168.0.1,0xFFFFFFFF,0xFFFFFFFF,0xFFFFFFFF,0x00000000,
1.84399986267,0x00000000,0x00000000,0x00000000,0x00000000,0x00000000,0x00000000,0x00000000,0x00000000,6984.95,4,0x00000000,72.266,36.863,-0.0,0.011,-0.004,-0.026,0.012,0.608,-0.717,-0.037,-0.37,1.96,0x00000003,1.0,1.0,0.001,0.0,0.003,-0.001,0.001,0.0,0.0,0.001,-0.001,0.0,0.0,-0.0,0.14,0.0,0.0,0.0,0.14,34.991,34.991,0.0,0.0,0.0,72.266,76.953,0.0,0.0,25.875,26.375,0.0,0.0,0.0,0.0,90.0,74.453,0.156,28.438,0x00000000,0x00000000,0x00000000,0.0,1240,1278,7.072,18.599,0.0,0.0,7.69,25.159,0.0,0.0,1.0,0.981,0.981,0.981,0.196,1.0,1.0,0.462,0.584,0.57,24.267,0x00000101,192.168.0.40,8080,255.255.255.0,192.168.0.1,0xFFFFFFFF,0xFFFFFFFF,0xFFFFFFFF,0x00000000,
1.86699986458,0x00000000,0x00000000,0x00000000,0x00000000,0x00000000,0x00000000,0x00000000,0x00000000,6984.97,4,0x00000000,72.266,36.863,-0.001,0.01,-0.013,-0.022,0.012,0.618,0.441,-0.039,-0.328,-0.474,0x00000003,1.0,1.0,-0.002,0.0,0.002,-0.0,0.0,0.0,0.0,0.001,-0.001,0.0,0.0,-0.0,0.165,-0.089,0.0,0.0,0.165,34.991,34.991,0.0,0.0,0.0,72.266,76.953,0.0,0.0,25.875,26.375,0.0,0.0,0.0,0.0,90.0,74.453,0.156,28.438,0x00000000,0x00000000,0x00000000,0.0,1240,1278,2.013,12.023,0.0,0.0,7.69,25.159,0.0,0.0,1.0,0.981,0.981,0.981,0.196,1.0,1.0,0.462,0.584,0.57,24.267,0x00000101,192.168.0.40,8080,255.255.255.0,192.168.0.1,0xFFFFFFFF,0xFFFFFFFF,0xFFFFFFFF,0x00000000,
1.91499996185,0x00000000,0x00000000,0x00000000,0x00000000,0x00000000,0x00000000,0x00000000,0x00000000,6985.02,4,0x00000000,72.266,36.863,-0.001,0.01,-0.019,-0.026,0.006,0.618,0.073,-0.027,0.418,-0.824,0x00000003,1.0,1.0,-0.001,0.0,0.001,-0.0,0.0,0.0,0.0,0.001,-0.001,0.0,0.0,-0.0,0.153,0.127,0.0,0.0,0.153,34.991,34.991,0.0,0.0,0.0,72.266,76.953,0.0,0.0,25.875,26.375,0.0,0.0,0.0,0.0,90.0,74.453,0.156,28.438,0x00000000,0x00000000,0x00000000,0.0,1240,1278,8.08,12.527,0.0,0.0,7.69,25.16,0.0,0.0,1.0,0.981,0.981,0.981,0.196,1.0,1.0,0.462,0.584,0.57,24.267,0x00000101,192.168.0.40,8080,255.255.255.0,192.168.0.1,0xFFFFFFFF,0xFFFFFFFF,0xFFFFFFFF,0x00000000,
2.03499984741,0x00000000,0x00000000,0x00000000,0x00000000,0x00000000,0x00000000,0x00000000,0x00000000,6985.14,4,0x00000000,72.266,36.863,-0.0,0.011,-0.027,-0.041,0.006,0.611,-0.65,-0.034,-0.338,0.047,0x00000003,1.0,1.0,-0.004,-0.0,0.001,-0.001,0.0,0.0,0.0,0.001,-0.001,0.0,0.0,-0.0,0.153,0.114,0.0,0.0,0.153,34.991,34.991,0.0,0.0,0.0,72.266,76.953,0.0,0.0,25.875,26.375,0.0,0.0,0.0,0.0,90.0,74.453,0.156,28.438,0x00000000,0x00000000,0x00000000,0.0,1240,1278,5.373,18.611,0.0,0.0,7.69,25.16,0.0,0.0,1.0,0.981,0.981,0.981,0.196,1.0,1.0,0.462,0.584,0.57,24.267,0x00000101,192.168.0.40,8080,255.255.255.0,192.168.0.1,0xFFFFFFFF,0xFFFFFFFF,0xFFFFFFFF,0x00000000,
2.04600000381,0x00000000,0x00000000,0x00000000,0x00000000,0x00000000,0x00000000,0x00000000,0x00000000,6985.15,4,0x00000000,72.266,36.863,-0.0,0.011,-0.019,-0.028,-0.0,0.603,-0.639,-0.042,-0.705,-0.126,0x00000003,1.0,1.0,0.005,-0.0,0.001,-0.0,0.001,0.0,0.0,0.001,-0.001,0.0,0.0,-0.0,0.229,0.127,0.0,0.0,0.229,34.991,34.991,0.0,0.0,0.0,72.266,76.953,0.0,0.0,25.875,26.375,0.0,0.0,0.0,0.0,90.0,74.453,0.156,28.438,0x00000000,0x00000000,0x00000000,0.0,1240,1278,7.24,18.705,0.0,0.0,7.69,25.16,0.0,0.0,1.0,0.981,0.981,0.981,0.196,1.0,1.0,0.462,0.584,0.57,24.267,0x00000101,192.168.0.40,8080,255.255.255.0,192.168.0.1,0xFFFFFFFF,0xFFFFFFFF,0xFFFFFFFF,0x00000000,
2.06500005722,0x00000000,0x00000000,0x00000000,0x00000000,0x00000000,0x00000000,0x00000000,0x00000000,6985.17,4,0x00000000,72.266,36.863,-0.001,0.011,-0.018,-0.03,0.015,0.602,0.058,-0.039,0.286,-0.299,0x00000003,1.0,1.0,0.008,0.0,0.001,-0.0,0.001,0.0,0.0,0.001,-0.001,0.0,0.0,-0.0,0.14,0.0,0.0,0.0,0.14,34.991,34.991,0.0,0.0,0.0,72.266,76.953,0.0,0.0,25.875,26.375,0.0,0.0,0.0,0.0,90.0,74.453,0.156,28.438,0x00000000,0x00000000,0x00000000,0.0,1240,1278,8.767,18.782,0.0,0.0,7.691,25.16,0.0,0.0,1.0,0.981,0.981,0.981,0.196,1.0,1.0,0.462,0.584,0.57,24.267,0x00000101,192.168.0.40,8080,255.255.255.0,192.168.0.1,0xFFFFFFFF,0xFFFFFFFF,0xFFFFFFFF,0x00000000,
2.11500000954,0x00000000,0x00000000,0x00000000,0x00000000,0x00000000,0x00000000,0x00000000,0x00000000,6985.22,4,0x00000000,72.266,36.863,-0.0,0.011,-0.008,-0.037,0.0,0.611,0.329,-0.044,-0.324,-0.642,0x00000003,1.0,1.0,-0.001,0.0,0.001,-0.0,0.0,0.0,0.0,0.001,-0.001,0.0,0.0,-0.0,0.14,0.013,0.0,0.0,0.14,34.991,34.991,0.0,0.0,0.0,72.266,76.953,0.0,0.0,25.875,26.375,0.0,0.0,0.0,0.0,90.0,74.453,0.156,28.438,0x00000000,0x00000000,0x00000000,0.0,1240,1278,8.726,18.145,0.0,0.0,7.691,25.161,0.0,0.0,1.0,0.981,0.981,0.981,0.196,1.0,1.0,0.462,0.584,0.57,24.267,0x00000101,192.168.0.40,8080,255.255.255.0,192.168.0.1,0xFFFFFFFF,0xFFFFFFFF,0xFFFFFFFF,0x00000000,
2.24499988556,0x00000000,0x00000000,0x00000000,0x00000000,0x00000000,0x00000000,0x00000000,0x00000000,6985.35,4,0x00000000,72.266,36.863,-0.001,0.011,-0.018,-0.026,0.003,0.619,0.267,-0.061,-0.327,-0.467,0x00000003,1.0,1.0,-0.001,0.0,0.001,-0.0,0.0,0.0,0.0,0.001,-0.001,0.0,0.0,-0.0,-0.356,0.42,0.0,0.0,0.42,34.991,34.991,0.0,0.0,0.0,72.266,76.953,0.0,0.0,25.875,26.375,0.0,0.0,0.0,0.0,90.0,74.453,0.156,28.438,0x00000000,0x00000000,0x00000000,0.0,1240,1278,4.828,17.195,0.0,0.0,7.691,25.161,0.0,0.0,1.0,0.981,0.981,0.981,0.196,1.0,1.0,0.462,0.584,0.57,24.267,0x00000101,192.168.0.40,8080,255.255.255.0,192.168.0.1,0xFFFFFFFF,0xFFFFFFFF,0xFFFFFFFF,0x00000000,
2.25499987602,0x00000000,0x00000000,0x00000000,0x00000000,0x00000000,0x00000000,0x00000000,0x00000000,6985.36,4,0x00000000,72.266,36.863,-0.001,0.011,-0.019,-0.024,0.009,0.619,-0.132,-0.058,0.162,-0.296,0x00000003,1.0,1.0,-0.006,-0.0,0.002,-0.002,0.001,0.0,0.0,0.001,-0.001,0.0,0.0,-0.0,0.534,-0.509,0.0,0.0,0.534,34.991,34.991,0.0,0.0,0.0,72.266,76.953,0.0,0.0,25.875,26.375,0.0,0.0,0.0,0.0,90.0,74.453,0.156,28.438,0x00000000,0x00000000,0x00000000,0.0,1240,1278,6.949,17.949,0.0,0.0,7.691,25.161,0.0,0.0,1.0,0.981,0.981,0.981,0.196,1.0,1.0,0.462,0.584,0.57,24.267,0x00000101,192.168.0.40,8080,255.255.255.0,192.168.0.1,0xFFFFFFFF,0xFFFFFFFF,0xFFFFFFFF,0x00000000,
2.26499986649,0x00000000,0x00000000,0x00000000,0x00000000,0x00000000,0x00000000,0x00000000,0x00000000,6985.37,4,0x00000000,72.266,36.863,-0.001,0.011,-0.02,-0.026,0.021,0.616,-0.184,-0.057,0.28,0.052,0x00000003,1.0,1.0,-0.008,-0.0,0.002,-0.002,0.0,0.0,0.0,0.001,-0.001,0.0,0.0,-0.0,-0.992,0.928,0.0,0.0,-0.992,34.991,34.991,0.0,0.0,0.0,72.266,76.953,0.0,0.0,25.875,26.375,0.0,0.0,0.0,0.0,90.0,74.453,0.156,28.438,0x00000000,0x00000000,0x00000000,0.0,1240,1278,8.081,18.352,0.0,0.0,7.691,25.161,0.0,0.0,1.0,0.981,0.981,0.981,0.196,1.0,1.0,0.462,0.584,0.57,24.267,0x00000101,192.168.0.40,8080,255.255.255.0,192.168.0.1,0xFFFFFFFF,0xFFFFFFFF,0xFFFFFFFF,0x00000000,
2.31500005722,0x00000000,0x00000000,0x00000000,0x00000000,0x00000000,0x00000000,0x00000000,0x00000000,6985.42,4,0x00000000,72.266,36.863,-0.001,0.011,-0.009,-0.024,-0.006,0.624,0.281,-0.06,0.046,-0.641,0x00000003,1.0,1.0,0.001,0.0,0.001,0.0,0.0,0.0,0.0,0.001,-0.001,0.0,0.0,-0.0,0.966,-0.89,0.0,0.0,0.966,34.991,34.991,0.0,0.0,0.0,72.266,76.953,0.0,0.0,25.875,26.375,0.0,0.0,0.0,0.0,90.0,74.453,0.156,28.438,0x00000000,0x00000000,0x00000000,0.0,1240,1278,8.188,18.126,0.0,0.0,7.691,25.162,0.0,0.0,1.0,0.981,0.981,0.981,0.196,1.0,1.0,0.462,0.584,0.57,24.267,0x00000101,192.168.0.40,8080,255.255.255.0,192.168.0.1,0xFFFFFFFF,0xFFFFFFFF,0xFFFFFFFF,0x00000000,
2.44599986076,0x00000000,0x00000000,0x00000000,0x00000000,0x00000000,0x00000000,0x00000000,0x00000000,6985.55,4,0x00000000,72.266,36.863,-0.001,0.011,-0.015,-0.026,0.024,0.63,0.243,-0.037,-0.327,-0.465,0x00000003,1.0,1.0,-0.003,-0.0,0.002,-0.001,0.0,0.0,0.0,0.001,-0.001,0.0,0.0,-0.0,-0.674,0.839,0.0,0.0,0.839,34.991,34.991,0.0,0.0,0.0,72.266,76.953,0.0,0.0,25.875,26.375,0.0,0.0,0.0,0.0,90.0,74.453,0.156,28.438,0x00000000,0x00000000,0x00000000,0.0,1240,1278,7.165,16.31,0.0,0.0,7.691,25.162,0.0,0.0,1.0,0.981,0.981,0.981,0.196,1.0,1.0,0.462,0.584,0.57,24.267,0x00000101,192.168.0.40,8080,255.255.255.0,192.168.0.1,0xFFFFFFFF,0xFFFFFFFF,0xFFFFFFFF,0x00000000,
2.45599985123,0x00000000,0x00000000,0x00000000,0x00000000,0x00000000,0x00000000,0x00000000,0x00000000,6985.56,4,0x00000000,72.266,36.863,-0.001,0.011,-0.002,-0.056,0.0,0.631,-0.002,-0.035,0.142,0.926,0x00000003,1.0,1.0,0.0,-0.0,0.002,-0.001,0.001,0.0,0.0,0.001,-0.001,0.0,0.0,-0.0,-0.89,0.915,0.0,0.0,0.915,34.991,34.991,0.0,0.0,0.0,72.266,76.953,0.0,0.0,25.875,26.375,0.0,0.0,0.0,0.0,90.0,74.453,0.156,28.438,0x00000000,0x00000000,0x00000000,0.0,1240,1278,6.009,17.478,0.0,0.0,7.691,25.162,0.0,0.0,1.0,0.981,0.981,0.981,0.196,1.0,1.0,0.462,0.584,0.57,24.267,0x00000101,192.168.0.40,8080,255.255.255.0,192.168.0.1,0xFFFFFFFF,0xFFFFFFFF,0xFFFFFFFF,0x00000000,
2.47600007057,0x00000000,0x00000000,0x00000000,0x00000000,0x00000000,0x00000000,0x00000000,0x00000000,6985.58,4,0x00000000,72.266,36.863,-0.001,0.011,-0.018,-0.056,0.006,0.635,-0.347,-0.044,0.647,0.226,0x00000003,1.0,1.0,0.002,-0.0,0.002,-0.0,0.0,0.0,0.0,0.001,-0.001,0.0,0.0,-0.0,0.165,0.025,0.0,0.0,0.165,34.991,34.991,0.0,0.0,0.0,72.266,76.953,0.0,0.0,25.875,26.375,0.0,0.0,0.0,0.0,90.0,74.453,0.156,28.438,0x00000000,0x00000000,0x00000000,0.0,1240,1278,4.043,18.433,0.0,0.0,7.691,25.162,0.0,0.0,1.0,0.981,0.981,0.981,0.196,1.0,1.0,0.462,0.584,0.57,24.267,0x00000101,192.168.0.40,8080,255.255.255.0,192.168.0.1,0xFFFFFFFF,0xFFFFFFFF,0xFFFFFFFF,0x00000000,
2.52600002289,0x00000000,0x00000000,0x00000000,0x00000000,0x00000000,0x00000000,0x00000000,0x00000000,6985.63,4,0x00000000,72.266,36.863,0.001,0.011,-0.01,-0.026,0.036,0.638,0.118,-0.048,-0.345,0.58,0x00000003,1.0,1.0,0.002,-0.0,0.001,-0.0,0.0,0.0,0.0,0.001,-0.001,0.0,0.0,-0.0,0.064,0.025,0.0,0.0,0.064,34.991,34.991,0.0,0.0,0.0,72.266,76.953,0.0,0.0,25.875,26.375,0.0,0.0,0.0,0.0,90.0,74.453,0.156,28.438,0x00000000,0x00000000,0x00000000,0.0,1240,1278,8.013,20.045,0.0,0.0,7.691,25.163,0.0,0.0,1.0,0.981,0.981,0.981,0.196,1.0,1.0,0.462,0.584,0.57,24.267,0x00000101,192.168.0.40,8080,255.255.255.0,192.168.0.1,0xFFFFFFFF,0xFFFFFFFF,0xFFFFFFFF,0x00000000,
2.65599989891,0x00000000,0x00000000,0x00000000,0x00000000,0x00000000,0x00000000,0x00000000,0x00000000,6985.76,4,0x00000000,72.266,36.863,0.0,0.011,-0.01,-0.034,0.0,0.666,0.78,-0.018,-0.079,-0.464,0x00000003,1.0,1.0,-0.006,0.0,0.001,-0.001,0.0,0.0,0.0,0.001,-0.001,0.0,0.0,-0.0,-0.254,0.229,0.0,0.0,-0.254,34.991,34.991,0.0,0.0,0.0,72.266,76.953,0.0,0.0,25.875,26.375,0.0,0.0,0.0,0.0,90.0,74.453,0.156,28.438,0x00000000,0x00000000,0x00000000,0.0,1240,1278,6.245,18.813,0.0,0.0,7.692,25.163,0.0,0.0,1.0,0.981,0.981,0.981,0.196,1.0,1.0,0.462,0.584,0.57,24.267,0x00000101,192.168.0.40,8080,255.255.255.0,192.168.0.1,0xFFFFFFFF,0xFFFFFFFF,0xFFFFFFFF,0x00000000,
2.66599988937,0x00000000,0x00000000,0x00000000,0x00000000,0x00000000,0x00000000,0x00000000,0x00000000,6985.77,4,0x00000000,72.266,36.863,-0.0,0.01,-0.012,-0.039,0.0,0.667,0.288,-0.022,-0.326,-0.466,0x00000003,1.0,1.0,-0.003,0.0,0.001,-0.0,0.0,0.0,0.0,0.001,-0.001,0.0,0.0,-0.0,0.979,-1.208,0.0,0.0,-1.208,34.991,34.991,0.0,0.0,0.0,72.266,76.953,0.0,0.0,25.875,26.375,0.0,0.0,0.0,0.0,90.0,74.453,0.156,28.438,0x00000000,0x00000000,0x00000000,0.0,1240,1278,7.705,18.813,0.0,0.0,7.692,25.163,0.0,0.0,1.0,0.981,0.981,0.981,0.196,1.0,1.0,0.462,0.584,0.57,24.267,0x00000101,192.168.0.40,8080,255.255.255.0,192.168.0.1,0xFFFFFFFF,0xFFFFFFFF,0xFFFFFFFF,0x00000000,
2.67599987984,0x00000000,0x00000000,0x00000000,0x00000000,0x00000000,0x00000000,0x00000000,0x00000000,6985.78,4,0x00000000,72.266,36.863,-0.001,0.01,-0.009,-0.035,0.03,0.669,0.19,-0.027,-0.572,-0.465,0x00000003,1.0,1.0,0.004,0.0,0.001,-0.0,0.001,0.0,0.0,0.001,-0.001,0.0,0.0,-0.0,1.093,-1.208,0.0,0.0,-1.208,34.991,34.991,0.0,0.0,0.0,72.266,76.953,0.0,0.0,25.875,26.375,0.0,0.0,0.0,0.0,90.0,74.453,0.156,28.438,0x00000000,0x00000000,0x00000000,0.0,1240,1278,8.484,18.813,0.0,0.0,7.692,25.163,0.0,0.0,1.0,0.981,0.981,0.981,0.196,1.0,1.0,0.462,0.584,0.57,24.267,0x00000101,192.168.0.40,8080,255.255.255.0,192.168.0.1,0xFFFFFFFF,0xFFFFFFFF,0xFFFFFFFF,0x00000000,
2.72600007057,0x00000000,0x00000000,0x00000000,0x00000000,0x00000000,0x00000000,0x00000000,0x00000000,6985.83,4,0x00000000,72.266,36.863,-0.0,0.011,-0.019,-0.026,-0.012,0.683,0.659,-0.022,-0.073,-0.812,0x00000003,1.0,1.0,-0.002,-0.0,0.002,-0.001,0.001,0.0,0.0,0.001,-0.001,0.0,0.0,-0.0,1.488,-1.004,0.0,0.0,1.488,34.991,34.991,0.0,0.0,0.0,72.266,76.953,0.0,0.0,25.875,26.375,0.0,0.0,0.0,0.0,90.0,74.453,0.156,28.438,0x00000000,0x00000000,0x00000000,0.0,1240,1278,6.973,21.509,0.0,0.0,7.692,25.164,0.0,0.0,1.0,0.981,0.981,0.981,0.196,1.0,1.0,0.462,0.584,0.57,24.267,0x00000101,192.168.0.40,8080,255.255.255.0,192.168.0.1,0xFFFFFFFF,0xFFFFFFFF,0xFFFFFFFF,0x00000000,
2.85599994659,0x00000000,0x00000000,0x00000000,0x00000000,0x00000000,0x00000000,0x00000000,0x00000000,6985.96,4,0x00000000,72.266,36.863,-0.0,0.011,-0.015,-0.022,-0.0,0.681,0.187,-0.048,-0.572,-0.465,0x00000003,1.0,1.0,0.004,0.0,0.001,-0.0,0.001,0.0,0.0,0.001,-0.001,0.0,0.0,-0.0,0.165,0.013,0.0,0.0,0.165,34.991,34.991,0.0,0.0,0.0,72.266,76.953,0.0,0.0,25.875,26.375,0.0,0.0,0.0,0.0,90.0,74.453,0.156,28.438,0x00000000,0x00000000,0x00000000,0.0,1240,1278,6.183,18.402,0.0,0.0,7.692,25.164,0.0,0.0,1.0,0.981,0.981,0.981,0.196,1.0,1.0,0.462,0.584,0.57,24.267,0x00000101,192.168.0.40,8080,255.255.255.0,192.168.0.1,0xFFFFFFFF,0xFFFFFFFF,0xFFFFFFFF,0x00000000,
2.86599993706,0x00000000,0x00000000,0x00000000,0x00000000,0x00000000,0x00000000,0x00000000,0x00000000,6985.97,4,0x00000000,72.266,36.863,-0.001,0.011,-0.012,-0.039,0.018,0.68,-0.009,-0.044,0.414,-0.468,0x00000003,1.0,1.0,0.001,0.0,0.001,-0.0,0.0,0.0,0.0,0.001,-0.001,0.0,0.0,-0.0,0.14,0.114,0.0,0.0,0.14,34.991,34.991,0.0,0.0,0.0,72.266,76.953,0.0,0.0,25.875,26.375,0.0,0.0,0.0,0.0,90.0,74.453,0.156,28.438,0x00000000,0x00000000,0x00000000,0.0,1240,1278,5.485,14.205,0.0,0.0,7.692,25.164,0.0,0.0,1.0,0.981,0.981,0.981,0.196,1.0,1.0,0.462,0.584,0.57,24.267,0x00000101,192.168.0.40,8080,255.255.255.0,192.168.0.1,0xFFFFFFFF,0xFFFFFFFF,0xFFFFFFFF,0x00000000,
2.87599992752,0x00000000,0x00000000,0x00000000,0x00000000,0x00000000,0x00000000,0x00000000,0x00000000,6985.98,4,0x00000000,72.266,36.863,-0.001,0.01,-0.017,-0.03,0.012,0.683,0.213,-0.049,-0.591,0.58,0x00000003,1.0,1.0,-0.001,0.0,0.001,-0.0,0.0,0.0,0.0,0.001,-0.001,0.0,0.0,-0.0,0.14,0.114,0.0,0.0,0.14,34.991,34.991,0.0,0.0,0.0,72.266,76.953,0.0,0.0,25.875,26.375,0.0,0.0,0.0,0.0,90.0,74.453,0.156,28.438,0x00000000,0x00000000,0x00000000,0.0,1240,1278,5.113,20.743,0.0,0.0,7.692,25.164,0.0,0.0,1.0,0.981,0.981,0.981,0.196,1.0,1.0,0.462,0.584,0.57,24.267,0x00000101,192.168.0.40,8080,255.255.255.0,192.168.0.1,0xFFFFFFFF,0xFFFFFFFF,0xFFFFFFFF,0x00000000,
2.9359998703,0x00000000,0x00000000,0x00000000,0x00000000,0x00000000,0x00000000,0x00000000,0x00000000,6986.04,4,0x00000000,72.266,36.863,-0.001,0.011,-0.019,-0.039,0.036,0.683,0.186,-0.041,-0.079,-0.467,0x00000003,1.0,1.0,0.004,0.0,0.0,-0.0,0.001,0.0,0.0,0.001,-0.001,0.0,0.0,-0.0,0.14,0.013,0.0,0.0,0.14,34.991,34.991,0.0,0.0,0.0,72.266,76.953,0.0,0.0,25.875,26.375,0.0,0.0,0.0,0.0,90.0,74.453,0.156,28.438,0x00000000,0x00000000,0x00000000,0.0,1240,1278,7.956,12.128,0.0,0.0,7.692,25.165,0.0,0.0,1.0,0.981,0.981,0.981,0.196,1.0,1.0,0.462,0.584,0.57,24.267,0x00000101,192.168.0.40,8080,255.255.255.0,192.168.0.1,0xFFFFFFFF,0xFFFFFFFF,0xFFFFFFFF,0x00000000,
3.0569999218,0x00000000,0x00000000,0x00000000,0x00000000,0x00000000,0x00000000,0x00000000,0x00000000,6986.16,4,0x00000000,72.266,36.863,-0.0,0.011,-0.023,-0.03,0.03,0.673,-0.28,-0.034,-0.345,0.576,0x00000003,1.0,1.0,0.0,-0.0,0.0,-0.0,0.0,0.0,0.0,0.001,-0.001,0.0,0.0,-0.0,0.153,0.0,0.0,0.0,0.153,34.991,34.991,0.0,0.0,0.0,72.266,76.953,0.0,0.0,25.875,26.375,0.0,0.0,0.0,0.0,90.0,74.453,0.156,28.438,0x00000000,0x00000000,0x00000000,0.0,1240,1278,5.733,17.545,0.0,0.0,7.692,25.165,0.0,0.0,1.0,0.981,0.981,0.981,0.196,1.0,1.0,0.462,0.584,0.57,24.267,0x00000101,192.168.0.40,8080,255.255.255.0,192.168.0.1,0xFFFFFFFF,0xFFFFFFFF,0xFFFFFFFF,0x00000000,
3.06599998474,0x00000000,0x00000000,0x00000000,0x00000000,0x00000000,0x00000000,0x00000000,0x00000000,6986.17,4,0x00000000,72.266,36.863,-0.001,0.01,-0.014,-0.017,-0.0,0.668,-0.427,-0.036,-0.112,1.27,0x00000003,1.0,1.0,0.001,-0.0,0.0,-0.0,0.0,0.0,0.0,0.001,-0.001,0.0,0.0,-0.0,0.153,0.114,0.0,0.0,0.153,34.991,34.991,0.0,0.0,0.0,72.266,76.953,0.0,0.0,25.875,26.375,0.0,0.0,0.0,0.0,90.0,74.453,0.156,28.438,0x00000000,0x00000000,0x00000000,0.0,1240,1278,5.245,18.136,0.0,0.0,7.692,25.165,0.0,0.0,1.0,0.981,0.981,0.981,0.196,1.0,1.0,0.462,0.584,0.57,24.267,0x00000101,192.168.0.40,8080,255.255.255.0,192.168.0.1,0xFFFFFFFF,0xFFFFFFFF,0xFFFFFFFF,0x00000000,
3.08699989319,0x00000000,0x00000000,0x00000000,0x00000000,0x00000000,0x00000000,0x00000000,0x00000000,6986.19,4,0x00000000,72.266,36.863,-0.001,0.01,-0.007,-0.03,0.006,0.665,-0.335,-0.036,-0.591,0.576,0x00000003,1.0,1.0,0.003,0.0,0.001,-0.001,0.001,0.0,0.0,0.001,-0.001,0.0,0.0,-0.0,0.153,0.013,0.0,0.0,0.153,34.991,34.991,0.0,0.0,0.0,72.266,76.953,0.0,0.0,25.875,26.375,0.0,0.0,0.0,0.0,90.0,74.453,0.156,28.438,0x00000000,0x00000000,0x00000000,0.0,1240,1278,8.2,14.232,0.0,0.0,7.692,25.165,0.0,0.0,1.0,0.981,0.981,0.981,0.196,1.0,1.0,0.462,0.584,0.57,24.267,0x00000101,192.168.0.40,8080,255.255.255.0,192.168.0.1,0xFFFFFFFF,0xFFFFFFFF,0xFFFFFFFF,0x00000000,
3.1369998455,0x00000000,0x00000000,0x00000000,0x00000000,0x00000000,0x00000000,0x00000000,0x00000000,6986.24,4,0x00000000,72.266,36.863,-0.0,0.01,-0.013,-0.026,0.03,0.671,-0.621,-0.042,0.394,0.57,0x00000003,1.0,1.0,-0.001,0.0,0.001,-0.0,0.0,0.0,0.0,0.001,-0.001,0.0,0.0,-0.0,0.153,0.025,0.0,0.0,0.153,34.991,34.991,0.0,0.0,0.0,72.266,76.953,0.0,0.0,25.875,26.375,0.0,0.0,0.0,0.0,90.0,74.453,0.156,28.438,0x00000000,0x00000000,0x00000000,0.0,1240,1278,4.472,12.978,0.0,0.0,7.693,25.166,0.0,0.0,1.0,0.981,0.981,0.981,0.196,1.0,1.0,0.462,0.584,0.57,24.267,0x00000101,192.168.0.40,8080,255.255.255.0,192.168.0.1,0xFFFFFFFF,0xFFFFFFFF,0xFFFFFFFF,0x00000000,
3.26699995995,0x00000000,0x00000000,0x00000000,0x00000000,0x00000000,0x00000000,0x00000000,0x00000000,6986.37,4,0x00000000,72.266,36.863,-0.0,0.011,-0.021,-0.039,0.024,0.654,-0.184,-0.039,-0.098,0.57,0x00000003,1.0,1.0,-0.006,0.0,0.001,-0.0,0.0,0.0,0.0,0.001,-0.001,0.0,0.0,-0.0,0.242,0.013,0.0,0.0,0.242,34.991,34.991,0.0,0.0,0.0,72.266,76.953,0.0,0.0,25.875,26.375,0.0,0.0,0.0,0.0,90.0,74.453,0.156,28.438,0x00000000,0x00000000,0x00000000,0.0,1240,1278,6.321,18.761,0.0,0.0,7.693,25.166,0.0,0.0,1.0,0.981,0.981,0.981,0.196,1.0,1.0,0.462,0.584,0.57,24.267,0x00000101,192.168.0.40,8080,255.255.255.0,192.168.0.1,0xFFFFFFFF,0xFFFFFFFF,0xFFFFFFFF,0x00000000,
3.27699995041,0x00000000,0x00000000,0x00000000,0x00000000,0x00000000,0x00000000,0x00000000,0x00000000,6986.38,4,0x00000000,72.266,36.863,-0.001,0.011,-0.014,-0.021,-0.006,0.651,-0.352,-0.044,-0.597,0.918,0x00000003,1.0,1.0,0.008,0.0,0.001,-0.0,0.001,0.0,0.0,0.001,-0.001,0.0,0.0,-0.0,0.254,0.025,0.0,0.0,0.254,34.991,34.991,0.0,0.0,0.0,72.266,76.953,0.0,0.0,25.875,26.375,0.0,0.0,0.0,0.0,90.0,74.453,0.156,28.438,0x00000000,0x00000000,0x00000000,0.0,1240,1278,7.746,18.785,0.0,0.0,7.693,25.166,0.0,0.0,1.0,0.981,0.981,0.981,0.196,1.0,1.0,0.462,0.584,0.57,24.267,0x00000101,192.168.0.40,8080,255.255.255.0,192.168.0.1,0xFFFFFFFF,0xFFFFFFFF,0xFFFFFFFF,0x00000000,
3.28699994087,0x00000000,0x00000000,0x00000000,0x00000000,0x00000000,0x00000000,0x00000000,0x00000000,6986.39,4,0x00000000,72.266,36.863,-0.001,0.011,-0.012,-0.013,0.012,0.651,0.063,-0.041,0.42,-0.824,0x00000003,1.0,1.0,0.002,0.0,0.001,-0.0,0.001,0.0,0.0,0.001,-0.001,0.0,0.0,-0.0,0.153,0.114,0.0,0.0,0.153,34.991,34.991,0.0,0.0,0.0,72.266,76.953,0.0,0.0,25.875,26.375,0.0,0.0,0.0,0.0,90.0,74.453,0.156,28.438,0x00000000,0x00000000,0x00000000,0.0,1240,1278,6.319,18.798,0.0,0.0,7.693,25.166,0.0,0.0,1.0,0.981,0.981,0.981,0.196,1.0,1.0,0.462,0.584,0.57,24.267,0x00000101,192.168.0.40,8080,255.255.255.0,192.168.0.1,0xFFFFFFFF,0xFFFFFFFF,0xFFFFFFFF,0x00000000,
3.33699989319,0x00000000,0x00000000,0x00000000,0x00000000,0x00000000,0x00000000,0x00000000,0x00000000,6986.44,4,0x00000000,72.266,36.863,-0.001,0.011,-0.012,-0.043,-0.006,0.661,0.478,-0.023,1.154,-0.475,0x00000003,1.0,1.0,0.0,0.0,0.001,-0.001,0.001,0.0,0.0,0.001,-0.001,0.0,0.0,-0.0,0.229,0.0,0.0,0.0,0.229,34.991,34.991,0.0,0.0,0.0,72.266,76.953,0.0,0.0,25.875,26.375,0.0,0.0,0.0,0.0,90.0,74.453,0.156,28.438,0x00000000,0x00000000,0x00000000,0.0,1240,1278,3.626,14.424,0.0,0.0,7.693,25.167,0.0,0.0,1.0,0.981,0.981,0.981,0.196,1.0,1.0,0.462,0.584,0.57,24.267,0x00000101,192.168.0.40,8080,255.255.255.0,192.168.0.1,0xFFFFFFFF,0xFFFFFFFF,0xFFFFFFFF,0x00000000,
3.46700000763,0x00000000,0x00000000,0x00000000,0x00000000,0x00000000,0x00000000,0x00000000,0x00000000,6986.57,4,0x00000000,72.266,36.863,-0.0,0.01,-0.012,-0.026,0.006,0.65,0.178,-0.03,0.402,0.221,0x00000003,1.0,1.0,0.003,0.0,0.001,-0.0,0.001,0.0,0.0,0.001,-0.001,0.0,0.0,-0.0,0.14,0.025,0.0,0.0,0.14,34.991,34.991,0.0,0.0,0.0,72.266,76.953,0.0,0.0,25.875,26.375,0.0,0.0,0.0,0.0,90.0,74.453,0.156,28.438,0x00000000,0x00000000,0x00000000,0.0,1240,1278,5.585,18.807,0.0,0.0,7.693,25.167,0.0,0.0,1.0,0.981,0.981,0.981,0.196,1.0,1.0,0.462,0.584,0.57,24.267,0x00000101,192.168.0.40,8080,255.255.255.0,192.168.0.1,0xFFFFFFFF,0xFFFFFFFF,0xFFFFFFFF,0x00000000,
3.48000001907,0x00000000,0x00000000,0x00000000,0x00000000,0x00000000,0x00000000,0x00000000,0x00000000,6986.58,4,0x00000000,72.266,36.863,-0.001,0.01,-0.028,-0.03,0.036,0.652,0.157,-0.027,0.161,-0.127,0x00000003,1.0,1.0,-0.001,0.0,0.001,-0.0,0.0,0.0,0.0,0.001,-0.001,0.0,0.0,-0.0,0.153,0.013,0.0,0.0,0.153,34.991,34.991,0.0,0.0,0.0,72.266,76.953,0.0,0.0,25.875,26.375,0.0,0.0,0.0,0.0,90.0,74.453,0.156,28.438,0x00000000,0x00000000,0x00000000,0.0,1240,1278,7.353,18.81,0.0,0.0,7.693,25.167,0.0,0.0,1.0,0.981,0.981,0.981,0.196,1.0,1.0,0.462,0.584,0.57,24.267,0x00000101,192.168.0.40,8080,255.255.255.0,192.168.0.1,0xFFFFFFFF,0xFFFFFFFF,0xFFFFFFFF,0x00000000,
3.49699997902,0x00000000,0x00000000,0x00000000,0x00000000,0x00000000,0x00000000,0x00000000,0x00000000,6986.6,4,0x00000000,72.266,36.863,-0.001,0.011,-0.025,-0.026,0.024,0.648,0.376,-0.035,-0.571,-0.472,0x00000003,1.0,1.0,-0.003,0.0,0.001,-0.0,0.0,0.0,0.0,0.001,-0.001,0.0,0.0,-0.0,0.14,0.025,0.0,0.0,0.14,34.991,34.991,0.0,0.0,0.0,72.266,76.953,0.0,0.0,25.875,26.375,0.0,0.0,0.0,0.0,90.0,74.453,0.156,28.438,0x00000000,0x00000000,0x00000000,0.0,1240,1278,5.446,16.471,0.0,0.0,7.693,25.167,0.0,0.0,1.0,0.981,0.981,0.981,0.196,1.0,1.0,0.462,0.584,0.57,24.267,0x00000101,192.168.0.40,8080,255.255.255.0,192.168.0.1,0xFFFFFFFF,0xFFFFFFFF,0xFFFFFFFF,0x00000000,
3.54799985886,0x00000000,0x00000000,0x00000000,0x00000000,0x00000000,0x00000000,0x00000000,0x00000000,6986.65,4,0x00000000,72.266,36.863,-0.001,0.011,-0.014,-0.017,-0.0,0.66,-0.018,-0.042,-0.572,-0.472,0x00000003,1.0,1.0,-0.002,0.0,0.001,-0.0,0.0,0.0,0.0,0.001,-0.001,0.0,0.0,-0.0,0.14,0.013,0.0,0.0,0.14,34.991,34.991,0.0,0.0,0.0,72.266,76.953,0.0,0.0,25.875,26.375,0.0,0.0,0.0,0.0,90.0,74.453,0.156,28.438,0x00000000,0x00000000,0x00000000,0.0,1240,1278,7.861,18.356,0.0,0.0,7.693,25.168,0.0,0.0,1.0,0.981,0.981,0.981,0.196,1.0,1.0,0.462,0.584,0.57,24.267,0x00000101,192.168.0.40,8080,255.255.255.0,192.168.0.1,0xFFFFFFFF,0xFFFFFFFF,0xFFFFFFFF,0x00000000,
3.6779999733,0x00000000,0x00000000,0x00000000,0x00000000,0x00000000,0x00000000,0x00000000,0x00000000,6986.78,4,0x00000000,72.266,36.863,0.0,0.011,-0.012,-0.043,0.006,0.664,0.136,-0.06,-0.067,-1.166,0x00000003,1.0,1.0,0.007,0.0,0.001,-0.0,0.001,0.0,0.0,0.001,-0.001,0.0,0.0,-0.0,0.14,-0.076,0.0,0.0,0.14,34.991,34.991,0.0,0.0,0.0,72.266,76.953,0.0,0.0,25.875,26.375,0.0,0.0,0.0,0.0,90.0,74.453,0.156,28.438,0x00000000,0x00000000,0x00000000,0.0,1240,1278,5.62,16.782,0.0,0.0,7.693,25.168,0.0,0.0,1.0,0.981,0.981,0.981,0.196,1.0,1.0,0.462,0.584,0.57,24.267,0x00000101,192.168.0.40,8080,255.255.255.0,192.168.0.1,0xFFFFFFFF,0xFFFFFFFF,0xFFFFFFFF,0x00000000,
3.68700003624,0x00000000,0x00000000,0x00000000,0x00000000,0x00000000,0x00000000,0x00000000,0x00000000,6986.79,4,0x00000000,72.266,36.863,-0.0,0.011,-0.021,-0.026,0.03,0.664,0.153,-0.069,-0.824,-0.118,0x00000003,1.0,1.0,0.008,0.0,0.001,-0.0,0.001,0.0,0.0,0.001,-0.001,0.0,0.0,-0.0,0.229,0.013,0.0,0.0,0.229,34.991,34.991,0.0,0.0,0.0,72.266,76.953,0.0,0.0,25.875,26.375,0.0,0.0,0.0,0.0,90.0,74.453,0.156,28.438,0x00000000,0x00000000,0x00000000,0.0,1240,1278,5.185,17.729,0.0,0.0,7.693,25.168,0.0,0.0,1.0,0.981,0.981,0.981,0.196,1.0,1.0,0.462,0.584,0.57,24.267,0x00000101,192.168.0.40,8080,255.255.255.0,192.168.0.1,0xFFFFFFFF,0xFFFFFFFF,0xFFFFFFFF,0x00000000,
3.6970000267,0x00000000,0x00000000,0x00000000,0x00000000,0x00000000,0x00000000,0x00000000,0x00000000,6986.8,4,0x00000000,72.266,36.863,-0.001,0.011,-0.02,-0.009,0.018,0.662,-0.335,-0.067,0.136,1.27,0x00000003,1.0,1.0,0.007,0.0,0.001,-0.0,0.001,0.0,0.0,0.001,-0.001,0.0,0.0,-0.0,0.153,0.025,0.0,0.0,0.153,34.991,34.991,0.0,0.0,0.0,72.266,76.953,0.0,0.0,25.875,26.375,0.0,0.0,0.0,0.0,90.0,74.453,0.156,28.438,0x00000000,0x00000000,0x00000000,0.0,1240,1278,4.953,18.235,0.0,0.0,7.693,25.168,0.0,0.0,1.0,0.981,0.981,0.981,0.196,1.0,1.0,0.462,0.584,0.57,24.267,0x00000101,192.168.0.40,8080,255.255.255.0,192.168.0.1,0xFFFFFFFF,0xFFFFFFFF,0xFFFFFFFF,0x00000000,
3.74799990654,0x00000000,0x00000000,0x00000000,0x00000000,0x00000000,0x00000000,0x00000000,0x00000000,6986.85,4,0x00000000,72.266,36.863,0.0,0.012,-0.014,-0.017,-0.0,0.652,-0.557,-0.076,-0.117,1.616,0x00000003,1.0,1.0,-0.003,0.0,0.001,-0.0,0.0,0.0,0.0,0.001,-0.001,0.0,0.0,-0.0,0.14,0.013,0.0,0.0,0.14,34.991,34.991,0.0,0.0,0.0,72.266,76.953,0.0,0.0,25.875,26.375,0.0,0.0,0.0,0.0,90.0,74.453,0.156,28.438,0x00000000,0x00000000,0x00000000,0.0,1240,1278,9.007,18.432,0.0,0.0,7.694,25.169,0.0,0.0,1.0,0.981,0.981,0.981,0.196,1.0,1.0,0.462,0.584,0.57,24.267,0x00000101,192.168.0.40,8080,255.255.255.0,192.168.0.1,0xFFFFFFFF,0xFFFFFFFF,0xFFFFFFFF,0x00000000,
3.87800002098,0x00000000,0x00000000,0x00000000,0x00000000,0x00000000,0x00000000,0x00000000,0x00000000,6986.98,4,0x00000000,72.266,36.863,-0.0,0.01,-0.017,-0.026,0.018,0.642,-0.141,-0.045,0.408,-0.126,0x00000003,1.0,1.0,0.0,0.0,0.001,-0.0,0.0,0.0,0.0,0.001,-0.001,0.0,0.0,-0.0,0.14,0.013,0.0,0.0,0.14,34.991,34.991,0.0,0.0,0.0,72.266,76.953,0.0,0.0,25.875,26.375,0.0,0.0,0.0,0.0,90.0,74.453,0.156,28.438,0x00000000,0x00000000,0x00000000,0.0,1240,1278,7.612,14.394,0.0,0.0,7.694,25.169,0.0,0.0,1.0,0.981,0.981,0.981,0.196,1.0,1.0,0.462,0.584,0.57,24.267,0x00000101,192.168.0.40,8080,255.255.255.0,192.168.0.1,0xFFFFFFFF,0xFFFFFFFF,0xFFFFFFFF,0x00000000,
3.88999986649,0x00000000,0x00000000,0x00000000,0x00000000,0x00000000,0x00000000,0x00000000,0x00000000,6986.99,4,0x00000000,72.266,36.863,-0.001,0.01,-0.019,-0.026,0.006,0.64,-0.092,-0.044,0.149,0.571,0x00000003,1.0,1.0,-0.002,0.0,0.001,-0.0,0.0,0.0,0.0,0.001,-0.001,0.0,0.0,-0.0,0.153,0.0,0.0,0.0,0.153,34.991,34.991,0.0,0.0,0.0,72.266,76.953,0.0,0.0,25.875,26.375,0.0,0.0,0.0,0.0,90.0,74.453,0.156,28.438,0x00000000,0x00000000,0x00000000,0.0,1240,1278,8.434,12.067,0.0,0.0,7.694,25.169,0.0,0.0,1.0,0.981,0.981,0.981,0.196,1.0,1.0,0.462,0.584,0.57,24.267,0x00000101,192.168.0.40,8080,255.255.255.0,192.168.0.1,0xFFFFFFFF,0xFFFFFFFF,0xFFFFFFFF,0x00000000,
3.89800000191,0x00000000,0x00000000,0x00000000,0x00000000,0x00000000,0x00000000,0x00000000,0x00000000,6987.0,4,0x00000000,72.266,36.863,-0.001,0.011,-0.012,-0.047,0.018,0.638,-0.239,-0.042,0.162,-0.126,0x00000003,1.0,1.0,-0.002,0.0,0.001,-0.0,0.0,0.0,0.0,0.001,-0.001,0.0,0.0,-0.0,0.14,0.013,0.0,0.0,0.14,34.991,34.991,0.0,0.0,0.0,72.266,76.953,0.0,0.0,25.875,26.375,0.0,0.0,0.0,0.0,90.0,74.453,0.156,28.438,0x00000000,0x00000000,0x00000000,0.0,1240,1278,6.686,15.214,0.0,0.0,7.694,25.169,0.0,0.0,1.0,0.981,0.981,0.981,0.196,1.0,1.0,0.462,0.584,0.57,24.267,0x00000101,192.168.0.40,8080,255.255.255.0,192.168.0.1,0xFFFFFFFF,0xFFFFFFFF,0xFFFFFFFF,0x00000000,
3.94799995422,0x00000000,0x00000000,0x00000000,0x00000000,0x00000000,0x00000000,0x00000000,0x00000000,6987.05,4,0x00000000,72.266,36.863,-0.0,0.011,-0.015,-0.017,0.024,0.621,-0.453,-0.052,0.154,0.221,0x00000003,1.0,1.0,-0.004,-0.0,0.001,-0.0,0.0,0.0,0.0,0.001,-0.001,0.0,0.0,-0.0,0.229,0.013,0.0,0.0,0.229,34.991,34.991,0.0,0.0,0.0,72.266,76.953,0.0,0.0,25.875,26.375,0.0,0.0,0.0,0.0,90.0,74.453,0.156,28.438,0x00000000,0x00000000,0x00000000,0.0,1240,1278,6.45,21.796,0.0,0.0,7.694,25.17,0.0,0.0,1.0,0.981,0.981,0.981,0.196,1.0,1.0,0.462,0.584,0.57,24.267,0x00000101,192.168.0.40,8080,255.255.255.0,192.168.0.1,0xFFFFFFFF,0xFFFFFFFF,0xFFFFFFFF,0x00000000,
4.08800005913,0x00000000,0x00000000,0x00000000,0x00000000,0x00000000,0x00000000,0x00000000,0x00000000,6987.19,4,0x00000000,72.266,36.863,0.0,0.011,-0.007,-0.03,0.006,0.612,0.349,-0.02,0.656,-0.124,0x00000003,1.0,1.0,-0.001,-0.0,0.001,-0.001,0.0,0.0,0.0,0.001,-0.001,0.0,0.0,-0.0,0.14,0.013,0.0,0.0,0.14,34.991,34.991,0.0,0.0,0.0,72.266,76.953,0.0,0.0,25.875,26.375,0.0,0.0,0.0,0.0,90.0,74.453,0.156,28.438,0x00000000,0x00000000,0x00000000,0.0,1240,1278,7.987,13.723,0.0,0.0,7.694,25.17,0.0,0.0,1.0,0.981,0.981,0.981,0.196,1.0,1.0,0.462,0.584,0.57,24.267,0x00000101,192.168.0.40,8080,255.255.255.0,192.168.0.1,0xFFFFFFFF,0xFFFFFFFF,0xFFFFFFFF,0x00000000,
4.09800004959,0x00000000,0x00000000,0x00000000,0x00000000,0x00000000,0x00000000,0x00000000,0x00000000,6987.2,4,0x00000000,72.266,36.863,-0.0,0.011,-0.017,-0.047,0.012,0.618,0.492,-0.019,-0.084,-0.12,0x00000003,1.0,1.0,0.007,-0.0,0.001,-0.0,0.001,0.0,0.0,0.001,-0.001,0.0,0.0,-0.0,0.267,-0.076,0.0,0.0,0.267,34.991,34.991,0.0,0.0,0.0,72.266,76.953,0.0,0.0,25.875,26.375,0.0,0.0,0.0,0.0,90.0,74.453,0.156,28.438,0x00000000,0x00000000,0x00000000,0.0,1240,1278,8.634,16.097,0.0,0.0,7.694,25.17,0.0,0.0,1.0,0.981,0.981,0.981,0.196,1.0,1.0,0.462,0.584,0.57,24.267,0x00000101,192.168.0.40,8080,255.255.255.0,192.168.0.1,0xFFFFFFFF,0xFFFFFFFF,0xFFFFFFFF,0x00000000,
4.10800004005,0x00000000,0x00000000,0x00000000,0x00000000,0x00000000,0x00000000,0x00000000,0x00000000,6987.21,4,0x00000000,72.266,36.863,-0.0,0.011,-0.009,-0.03,0.0,0.616,-0.115,-0.031,-1.078,0.226,0x00000003,1.0,1.0,-0.002,-0.0,0.002,-0.001,0.0,0.0,0.0,0.001,-0.001,0.0,0.0,-0.0,0.229,0.013,0.0,0.0,0.229,34.991,34.991,0.0,0.0,0.0,72.266,76.953,0.0,0.0,25.875,26.375,0.0,0.0,0.0,0.0,90.0,74.453,0.156,28.438,0x00000000,0x00000000,0x00000000,0.0,1240,1278,8.98,12.976,0.0,0.0,7.694,25.17,0.0,0.0,1.0,0.981,0.981,0.981,0.196,1.0,1.0,0.462,0.584,0.57,24.267,0x00000101,192.168.0.40,8080,255.255.255.0,192.168.0.1,0xFFFFFFFF,0xFFFFFFFF,0xFFFFFFFF,0x00000000,
4.15799999237,0x00000000,0x00000000,0x00000000,0x00000000,0x00000000,0x00000000,0x00000000,0x00000000,6987.26,4,0x00000000,72.266,36.863,0.0,0.011,-0.019,-0.039,0.0,0.625,0.203,-0.017,0.396,0.573,0x00000003,1.0,1.0,0.0,-0.0,0.001,-0.0,0.0,0.0,0.0,0.001,-0.001,0.0,0.0,-0.0,0.153,0.0,0.0,0.0,0.153,34.991,34.991,0.0,0.0,0.0,72.266,76.953,0.0,0.0,25.875,26.375,0.0,0.0,0.0,0.0,90.0,74.453,0.156,28.438,0x00000000,0x00000000,0x00000000,0.0,1240,1278,7.527,17.311,0.0,0.0,7.694,25.17,0.0,0.0,1.0,0.981,0.981,0.981,0.196,1.0,1.0,0.462,0.584,0.57,24.267,0x00000101,192.168.0.40,8080,255.255.255.0,192.168.0.1,0xFFFFFFFF,0xFFFFFFFF,0xFFFFFFFF,0x00000000,
4.28900003433,0x00000000,0x00000000,0x00000000,0x00000000,0x00000000,0x00000000,0x00000000,0x00000000,6987.39,4,0x00000000,72.266,36.863,-0.001,0.011,-0.011,-0.017,0.012,0.631,0.327,-0.058,-0.078,-0.47,0x00000003,1.0,1.0,0.002,-0.0,0.001,-0.0,0.0,0.0,0.0,0.001,-0.001,0.0,0.0,-0.0,0.14,0.025,0.0,0.0,0.14,34.991,34.991,0.0,0.0,0.0,72.266,76.953,0.0,0.0,25.875,26.375,0.0,0.0,0.0,0.0,90.0,74.453,0.156,28.438,0x00000000,0x00000000,0x00000000,0.0,1240,1278,7.175,18.087,0.0,0.0,7.694,25.171,0.0,0.0,1.0,0.981,0.981,0.981,0.196,1.0,1.0,0.462,0.584,0.57,24.267,0x00000101,192.168.0.40,8080,255.255.255.0,192.168.0.1,0xFFFFFFFF,0xFFFFFFFF,0xFFFFFFFF,0x00000000,
4.2990000248,0x00000000,0x00000000,0x00000000,0x00000000,0x00000000,0x00000000,0x00000000,0x00000000,6987.4,4,0x00000000,72.266,36.863,-0.0,0.011,-0.016,-0.03,0.0,0.634,0.227,-0.05,0.649,0.225,0x00000003,1.0,1.0,0.001,-0.0,0.001,-0.0,0.0,0.0,0.0,0.001,-0.001,0.0,0.0,-0.0,0.153,0.025,0.0,0.0,0.153,34.991,34.991,0.0,0.0,0.0,72.266,76.953,0.0,0.0,25.875,26.375,0.0,0.0,0.0,0.0,90.0,74.453,0.156,28.438,0x00000000,0x00000000,0x00000000,0.0,1240,1278,8.202,18.426,0.0,0.0,7.694,25.171,0.0,0.0,1.0,0.981,0.981,0.981,0.196,1.0,1.0,0.462,0.584,0.57,24.267,0x00000101,192.168.0.40,8080,255.255.255.0,192.168.0.1,0xFFFFFFFF,0xFFFFFFFF,0xFFFFFFFF,0x00000000,
4.30799984932,0x00000000,0x00000000,0x00000000,0x00000000,0x00000000,0x00000000,0x00000000,0x00000000,6987.41,4,0x00000000,72.266,36.863,-0.001,0.011,-0.026,-0.022,0.03,0.633,-0.067,-0.052,-0.079,-0.47,0x00000003,1.0,1.0,0.0,0.0,0.001,-0.0,0.0,0.0,0.0,0.001,-0.001,0.0,0.0,-0.0,0.153,0.025,0.0,0.0,0.153,34.991,34.991,0.0,0.0,0.0,72.266,76.953,0.0,0.0,25.875,26.375,0.0,0.0,0.0,0.0,90.0,74.453,0.156,28.438,0x00000000,0x00000000,0x00000000,0.0,1240,1278,8.749,18.606,0.0,0.0,7.695,25.171,0.0,0.0,1.0,0.981,0.981,0.981,0.196,1.0,1.0,0.462,0.584,0.57,24.267,0x00000101,192.168.0.40,8080,255.255.255.0,192.168.0.1,0xFFFFFFFF,0xFFFFFFFF,0xFFFFFFFF,0x00000000,
4.35899996758,0x00000000,0x00000000,0x00000000,0x00000000,0x00000000,0x00000000,0x00000000,0x00000000,6987.46,4,0x00000000,72.266,36.863,-0.0,0.011,-0.012,-0.03,0.024,0.632,0.03,-0.06,-0.337,0.226,0x00000003,1.0,1.0,-0.001,0.0,0.001,-0.0,0.001,0.0,0.0,0.001,-0.001,0.0,0.0,-0.0,0.14,0.0,0.0,0.0,0.14,34.991,34.991,0.0,0.0,0.0,72.266,76.953,0.0,0.0,25.875,26.375,0.0,0.0,0.0,0.0,90.0,74.453,0.156,28.438,0x00000000,0x00000000,0x00000000,0.0,1240,1278,6.32,14.06,0.0,0.0,7.695,25.171,0.0,0.0,1.0,0.981,0.981,0.981,0.196,1.0,1.0,0.462,0.584,0.57,24.267,0x00000101,192.168.0.40,8080,255.255.255.0,192.168.0.1,0xFFFFFFFF,0xFFFFFFFF,0xFFFFFFFF,0x00000000,
4.49899983406,0x00000000,0x00000000,0x00000000,0x00000000,0x00000000,0x00000000,0x00000000,0x00000000,6987.6,4,0x00000000,72.266,36.863,-0.001,0.011,-0.019,-0.013,0.006,0.622,0.03,-0.076,-0.336,0.226,0x00000003,1.0,1.0,0.0,0.0,0.002,-0.0,0.001,0.0,0.0,0.001,-0.001,0.0,0.0,-0.0,0.153,0.127,0.0,0.0,0.153,34.991,34.991,0.0,0.0,0.0,72.266,76.953,0.0,0.0,25.875,26.375,0.0,0.0,0.0,0.0,90.0,74.453,0.156,28.438,0x00000000,0x00000000,0x00000000,0.0,1240,1278,8.533,19.695,0.0,0.0,7.695,25.172,0.0,0.0,1.0,0.981,0.981,0.981,0.196,1.0,1.0,0.462,0.584,0.57,24.267,0x00000101,192.168.0.40,8080,255.255.255.0,192.168.0.1,0xFFFFFFFF,0xFFFFFFFF,0xFFFFFFFF,0x00000000,
4.50900006294,0x00000000,0x00000000,0x00000000,0x00000000,0x00000000,0x00000000,0x00000000,0x00000000,6987.61,4,0x00000000,72.266,36.863,-0.001,0.011,-0.018,-0.03,0.006,0.618,-0.232,-0.068,0.901,-0.128,0x00000003,1.0,1.0,-0.002,0.0,0.001,-0.0,0.0,0.0,0.0,0.001,-0.001,0.0,0.0,-0.0,0.242,0.0,0.0,0.0,0.242,34.991,34.991,0.0,0.0,0.0,72.266,76.953,0.0,0.0,25.875,26.375,0.0,0.0,0.0,0.0,90.0,74.453,0.156,28.438,0x00000000,0x00000000,0x00000000,0.0,1240,1278,6.739,19.283,0.0,0.0,7.695,25.172,0.0,0.0,1.0,0.981,0.981,0.981,0.196,1.0,1.0,0.462,0.584,0.57,24.267,0x00000101,192.168.0.40,8080,255.255.255.0,192.168.0.1,0xFFFFFFFF,0xFFFFFFFF,0xFFFFFFFF,0x00000000,
4.51900005341,0x00000000,0x00000000,0x00000000,0x00000000,0x00000000,0x00000000,0x00000000,0x00000000,6987.62,4,0x00000000,72.266,36.863,-0.001,0.01,-0.014,-0.022,0.006,0.617,-0.188,-0.067,-0.084,-0.125,0x00000003,1.0,1.0,-0.003,0.0,0.001,-0.0,0.0,0.0,0.0,0.001,-0.001,0.0,0.0,-0.0,0.14,0.102,0.0,0.0,0.14,34.991,34.991,0.0,0.0,0.0,72.266,76.953,0.0,0.0,25.875,26.375,0.0,0.0,0.0,0.0,90.0,74.453,0.156,28.438,0x00000000,0x00000000,0x00000000,0.0,1240,1278,5.782,19.064,0.0,0.0,7.695,25.172,0.0,0.0,1.0,0.981,0.981,0.981,0.196,1.0,1.0,0.462,0.584,0.57,24.267,0x00000101,192.168.0.40,8080,255.255.255.0,192.168.0.1,0xFFFFFFFF,0xFFFFFFFF,0xFFFFFFFF,0x00000000,
4.55900001526,0x00000000,0x00000000,0x00000000,0x00000000,0x00000000,0x00000000,0x00000000,0x00000000,6987.66,4,0x00000000,72.266,36.863,-0.0,0.01,-0.017,-0.03,-0.0,0.613,-0.164,-0.058,-0.325,-0.471,0x00000003,1.0,1.0,0.011,0.0,0.002,-0.0,0.002,0.0,0.0,0.001,-0.001,0.0,0.0,-0.0,0.242,-0.089,0.0,0.0,0.242,34.991,34.991,0.0,0.0,0.0,72.266,76.953,0.0,0.0,25.875,26.375,0.0,0.0,0.0,0.0,90.0,74.453,0.156,28.438,0x00000000,0x00000000,0x00000000,0.0,1240,1278,6.565,17.584,0.0,0.0,7.695,25.172,0.0,0.0,1.0,0.981,0.981,0.981,0.196,1.0,1.0,0.462,0.584,0.57,24.267,0x00000101,192.168.0.40,8080,255.255.255.0,192.168.0.1,0xFFFFFFFF,0xFFFFFFFF,0xFFFFFFFF,0x00000000,
